[ {
  "id" : "lot-1",
  "ownerId" : "owner-1",
  "ownerName" : "Mike Johnson",
  "name" : "Downtown Plaza Parking",
  "address" : "123 Main Street, Downtown",
  "city" : "New York",
  "area" : "Manhattan",
  "latitude" : 40.7589,
  "longitude" : -73.9851,
  "pricePerHour" : 15.0,
  "totalSlots" : 50,
  "availableSlots" : 46,
  "availability" : "AVAILABLE",
  "active" : true
}, {
  "id" : "lot-2",
  "ownerId" : "owner-1",
  "ownerName" : "Mike Johnson",
  "name" : "Central Station Parking",
  "address" : "456 Park Avenue, Midtown",
  "city" : "New York",
  "area" : "Midtown",
  "latitude" : 40.7527,
  "longitude" : -73.9772,
  "pricePerHour" : 20.0,
  "totalSlots" : 100,
  "availableSlots" : 80,
  "availability" : "AVAILABLE",
  "active" : true
}, {
  "id" : "lot-3",
  "ownerId" : "owner-2",
  "ownerName" : "Sarah Williams",
  "name" : "City Center Garage",
  "address" : "789 Broadway, Financial District",
  "city" : "New York",
  "area" : "Financial District",
  "latitude" : 40.7074,
  "longitude" : -74.0113,
  "pricePerHour" : 18.0,
  "totalSlots" : 75,
  "availableSlots" : 61,
  "availability" : "AVAILABLE",
  "active" : true
}, {
  "id" : "lot-4",
  "ownerId" : "owner-2",
  "ownerName" : "Sarah Williams",
  "name" : "Brooklyn Heights Parking",
  "address" : "321 Atlantic Avenue, Brooklyn",
  "city" : "Brooklyn",
  "area" : "Brooklyn Heights",
  "latitude" : 40.6928,
  "longitude" : -73.9903,
  "pricePerHour" : 12.0,
  "totalSlots" : 40,
  "availableSlots" : 35,
  "availability" : "AVAILABLE",
  "active" : true
}, {
  "id" : "75fa1ee6-795a-4611-ae65-6730026a57cc",
  "ownerId" : "owner-1",
  "ownerName" : "owner1@parkease.com",
  "name" : "Kunal Agrawal",
  "address" : "Pradhan Building, Siddharth PG",
  "city" : "Ghaziabad",
  "area" : "khajuri",
  "latitude" : 28.6261248,
  "longitude" : 77.4340608,
  "pricePerHour" : 10.0,
  "totalSlots" : 20,
  "availableSlots" : 20,
  "availability" : "AVAILABLE",
  "active" : true
}, {
  "id" : "ac3f9353-8fae-4129-9077-53cb2bb66ae9",
  "ownerId" : "owner-1",
  "ownerName" : "owner1@parkease.com",
  "name" : "Udit singh",
  "address" : "Khajuri Gola\nMayur Mart",
  "city" : "Varanasi",
  "area" : "khajuri",
  "latitude" : 25.34384,
  "longitude" : 82.99246,
  "pricePerHour" : 100.0,
  "totalSlots" : 5,
  "availableSlots" : 5,
  "availability" : "AVAILABLE",
  "active" : true
}, {
  "id" : "4c41f129-d40c-42a0-a3f9-bfe3c487a171",
  "ownerId" : "b356b991-01a7-4a59-88a4-1c8ecf9f7b4a",
  "ownerName" : "abhi@gmail.com",
  "name" : "Abhishek Singh",
  "address" : "Mukularanyam English School , Varanasi",
  "city" : "Varanasi",
  "area" : "Sigra",
  "latitude" : 25.401545063626106,
  "longitude" : 82.96354479166783,
  "pricePerHour" : 10.0,
  "totalSlots" : 20,
  "availableSlots" : 20,
  "availability" : "AVAILABLE",
  "active" : true
}, {
  "id" : "1aeda6de-3116-46ee-b22b-67861c7b4f29",
  "ownerId" : "cb9a828c-a17f-4e83-8431-a7def6e1e4d6",
  "ownerName" : "udit@gmail.com",
  "name" : "Udit Singh",
  "address" : "Kabirchaura Hospital",
  "city" : "Varanasi",
  "area" : "Kabirchaura ",
  "latitude" : 25.32047515309508,
  "longitude" : 83.00877180974277,
  "pricePerHour" : 15.0,
  "totalSlots" : 40,
  "availableSlots" : 39,
  "availability" : "AVAILABLE",
  "active" : true
} ]